---
events:
  heat_wave:
    - id: 1
      title: 2021 Pacific Northwest
      start_date: 2021-06-24
      end_date: 2021-07-02
      location: 
        latitude:  47.6062
        longitude: -122.3321
      bounding_box_km: 500
      cross_listed:
    - id: 2
      title: 2022 Upper Midwest
      start_date: 2022-05-14
      end_date: 2022-05-16
      location: 
        latitude:  41.8781
        longitude: -87.6298    
      bounding_box_km: 500
      cross_listed:
    - id: 3
      title: 2022 California
      start_date: 2022-06-13
      end_date: 2022-06-14
      location: 
        latitude:  34.0522
        longitude: -118.2437    
      bounding_box_km: 500
      cross_listed:
    - id: 4
      title: 2022 Intermountain West
      start_date: 2022-07-10
      end_date: 2022-07-16
      location: 
        latitude:  37.2982
        longitude: -113.0263    
      bounding_box_km: 500
      cross_listed:
    - id: 5
      title: 2023 Pacific Northwest
      start_date: 2023-05-13
      end_date: 2023-05-15
      location: 
        latitude:  47.6062
        longitude: -122.3321    
      bounding_box_km: 500
      cross_listed:
    - id: 6
      title: 2023 California
      start_date: 2023-06-12
      end_date: 2023-06-13
      location: 
        latitude:  34.0522
        longitude: -118.2437    
      bounding_box_km: 500
      cross_listed:
    - id: 7
      title: 2023 Australia
      start_date: 2023-11-20
      end_date: 2023-11-26
      location: 
        latitude:  -31.9505
        longitude: 115.8605    
      bounding_box_km: 500
      cross_listed:
    - id: 8
      title: 2023 Ireland
      start_date: 2023-09-04
      end_date: 2023-09-10
      location: 
        latitude:  53.1424
        longitude: -7.6921    
      bounding_box_km: 500
      cross_listed:
    - id: 9
      title: 2023 Italy
      start_date: 2023-07-17
      end_date: 2023-07-19
      location: 
        latitude:  41.9028
        longitude: 12.4964    
      bounding_box_km: 500
      cross_listed:
    - id: 10
      title: 2023 SW Europe
      start_date: 2023-08-19
      end_date: 2023-08-25
      location: 
        latitude:  37.2982
        longitude: -113.0263    
      bounding_box_km: 500
      cross_listed:
  freeze:
