---
events:
  heat_wave:
    - id: 1
      title: 2021 Pacific Northwest
      start_date: 2021-06-24
      end_date: 2021-07-02
      location: 
        latitude:  47.6062
        longitude: -122.3321
      bounding_box_km: 500
      cross_listed:
    - id: 2
      title: 2022 Upper Midwest
      start_date: 2022-05-14
      end_date: 2022-05-16
      location: 
        latitude:  41.8781
        longitude: -87.6298    
      bounding_box_km: 500
      cross_listed:
    - id: 3
      title: 2022 California
      start_date: 2022-06-13
      end_date: 2022-06-14
      location: 
        latitude:  34.0522
        longitude: -118.2437    
      bounding_box_km: 500
      cross_listed:
    - id: 4
      title: 2022 Intermountain West
      start_date: 2022-07-10
      end_date: 2022-07-16
      location: 
        latitude:  37.2982
        longitude: -113.0263    
      bounding_box_km: 500
      cross_listed:
    - id: 5
      title: 2023 Pacific Northwest
      start_date: 2023-05-13
      end_date: 2023-05-15
      location: 
        latitude:  47.6062
        longitude: -122.3321    
      bounding_box_km: 500
      cross_listed:
    - id: 6
      title: 2022 Mid-Atlantic
      start_date: 2022-05-20
      end_date: 2022-05-22
      location: 
        latitude:  39.2904
        longitude: -76.6122    
      bounding_box_km: 500
      cross_listed:
    - id: 7
      title: 2023 Australia
      start_date: 2023-11-20
      end_date: 2023-11-26
      location: 
        latitude:  -31.9505
        longitude: 115.8605    
      bounding_box_km: 500
      cross_listed:
    - id: 8
      title: 2023 Ireland
      start_date: 2023-09-04
      end_date: 2023-09-10
      location: 
        latitude:  53.1424
        longitude: -7.6921    
      bounding_box_km: 500
      cross_listed:
    - id: 9
      title: 2023 Italy
      start_date: 2023-07-17
      end_date: 2023-07-19
      location: 
        latitude:  41.9028
        longitude: 12.4964    
      bounding_box_km: 500
      cross_listed:
    - id: 10
      title: 2023 SW Europe
      start_date: 2023-08-19
      end_date: 2023-08-25
      location: 
        latitude:  40.4637
        longitude: -3.7492    
      bounding_box_km: 500
      cross_listed:
    - id: 11
      title: 2023 South America
      start_date: 2023-08-10
      end_date: 2023-08-14
      location: 
        latitude:  -34.6037
        longitude: -58.3816    
      bounding_box_km: 500
      cross_listed:
    - id: 12
      title: 2023 China (Shanghai)
      start_date: 2023-05-27
      end_date: 2023-05-30
      location: 
        latitude:  31.2304
        longitude: 121.4737    
      bounding_box_km: 500
      cross_listed:
    - id: 13
      title: 2023 China (Yunnan Province)
      start_date: 2023-04-16
      end_date: 2023-04-19
      location: 
        latitude:  25.0458
        longitude: 102.7100    
      bounding_box_km: 500
      cross_listed:
    - id: 14
      title: 2023 Algeria
      start_date: 2023-07-18
      end_date: 2023-07-24
      location: 
        latitude:  36.7372
        longitude: 3.0869    
      bounding_box_km: 500
      cross_listed:
    - id: 15
      title: 2023 Iberian Peninsula
      start_date: 2023-04-24
      end_date: 2023-04-28
      location: 
        latitude:  37.3891
        longitude: -5.9845    
      bounding_box_km: 500
      cross_listed:
    - id: 16
      title: 2023 Gibraltar
      start_date: 2023-04-26
      end_date: 2023-04-28
      location: 
        latitude:  36.1408
        longitude: -5.3536    
      bounding_box_km: 500
      cross_listed:
    - id: 17
      title: 2023 India
      start_date: 2023-04-16
      end_date: 2023-04-22
      location: 
        latitude:  28.6139
        longitude: 77.2090    
      bounding_box_km: 500
      cross_listed:
    - id: 18
      title: 2023 Philippines
      start_date: 2023-04-21
      end_date: 2023-05-12
      location: 
        latitude:  14.6760
        longitude: 121.0437    
      bounding_box_km: 500
      cross_listed:
    - id: 19
      title: 2022 Germany
      start_date: 2022-12-25
      end_date: 2022-12-31
      location: 
        latitude:  52.5200
        longitude: 13.4050    
      bounding_box_km: 500
      cross_listed:
    - id: 20
      title: 2022 UK
      start_date: 2022-08-10
      end_date: 2022-08-15
      location: 
        latitude:  51.5074
        longitude: -0.1278    
      bounding_box_km: 500
      cross_listed:
  freeze:
    - id: 12
      title: 2021 Texas
      start_date: 2021-02-14
      end_date: 2021-02-18
      location: 
        latitude:  30.2672
        longitude: -97.7431
      bounding_box_km: 500
      cross_listed: